{"place": "Rostov", "lat": 47.2357, "lon": 39.7015, "arrival_date": "1942-11-01", "description": "Finally arrives here. In a new, undamaged factory. Wilhelm has to help with the repair himself, otherwise it will take weeks."}
{"place": "Krasnodar", "lat": 45.0355, "lon": 38.9753, "arrival_date": "1942-11-20", "description": "Arrives at J-Staffel with Hollstein, finds mail waiting. Continues on to the column. 30 km on foot through mud and rain to the unit."}
{"place": "Rostov", "lat": 47.2357, "lon": 39.7015, "arrival_date": "1942-11-30", "description": "Back again from the front. Quarters on a straw mattress with the O.T. (Organisation Todt), electric light, cinema in the basement, old field kitchen. Christmas with roast pork, Stollen, sparkling wine, and red wine at the hotel."}
{"place": "On the move", "lat": 47.5, "lon": 37.0, "radius_km": 50, "arrival_date": "1943-02-07", "description": "Leaves the workshop in Rostov with Dauble's prime mover and a rear detachment. Ivan is said to already be in Rostov. Mail now takes a long time."}
{"place": "Dnipropetrovsk", "lat": 48.4647, "lon": 35.0461, "arrival_date": "1943-02-13", "description": "Ivan is roaming around with tanks too. A proper rear-area life with cinema and canteens. Comrades passing through. Quartered with an older woman, complete with knife, fork, plate, and cup."}
{"place": "Zaporizhzhia", "lat": 47.8333, "lon": 35.1667, "arrival_date": "1943-03-02", "description": "Overnight in Zaporizhzhia on the way to the Crimea."}
{"place": "Melitopol", "lat": 46.8428, "lon": 35.3675, "arrival_date": "1943-03-03", "description": "Ate at the soldiers' home. Rain and sleet."}
{"place": "Simferopol (Crimea)", "lat": 44.9572, "lon": 34.1108, "arrival_date": "1943-03-07", "description": "Gets rid of the vehicles right away. Theater and cinema, well fed at the soldiers' home. Next day 40 km back, where the battalion is being assembled."}
{"place": "Crimean village at the Yaila Mountains", "lat": 45.0, "lon": 34.0, "radius_km": 30, "arrival_date": "1943-03-11", "description": "With the company in a village in the middle of the steppe. The company consists mostly of men returning from leave, nearly all familiar faces. Waiting for the battalion to cross over."}
{"place": "Kuban bridgehead (near Temryuk)", "lat": 45.2783, "lon": 37.3894, "radius_km": 15, "arrival_date": "1943-04-21", "description": "Arrived at the battery after 4 days' march and crossing. Hilly terrain, cozy bunkers. Big welcome. Wilhelm has been Obergefreiter since 1942-12-01."}
{"place": "Kuban on the beach (Sea of Azov)", "lat": 45.4, "lon": 37.5, "radius_km": 10, "arrival_date": "1943-05-06", "description": "Position change to the beach, because Ivan has attempted a landing. Bauer's truck and billet burn down because of a carelessly tossed cigarette. Eats sturgeon and caviar."}
{"place": "Kuban", "lat": 45.2, "lon": 37.5, "radius_km": 15, "arrival_date": "1943-05-15", "description": "Back in the old position in the mountains. Very hot, no more swimming. Tropical clothing issued. Spieß Karius transferred."}
{"place": "Main dressing station (Kuban)", "lat": 45.3, "lon": 37.5, "radius_km": 20, "arrival_date": "1943-05-20", "description": "Wilhelm is hit in the thigh by a submachine-gun round in an accident — about a 20 cm through-wound from below upward. Waiting to be transported back."}
