{"place": "Elten", "lat": 51.8731, "lon": 6.1736, "arrival_date": "1940-05-10", "description": "As Army Artillery with the 1st Panzer Army, crosses the Dutch border at Elten together with the SS — beginning of the Western Campaign."}
{"place": "Before Arnhem", "lat": 51.9851, "lon": 5.8987, "arrival_date": "1940-05-11", "description": "First time taking up a firing position, bombardment of Fort Westerfort. After crossing the IJssel, continues on at great speed."}
{"place": "Wageningen", "lat": 51.9692, "lon": 5.6654, "arrival_date": "1940-05-11", "description": "Advance comes to a halt at the Grebbe Line; firing almost 3 days without pause — 1000 tons of shells and 30 Stukas break the position."}
{"place": "Before Utrecht", "lat": 52.0907, "lon": 5.1214, "radius_km": 10, "arrival_date": "1940-05-14", "description": "On the last day before the capitulation, the entire 11th Battery forms a shock troop up to 10 km from Utrecht, facing a Dutch brigade which surrenders."}
{"place": "'s-Hertogenbosch (Netherlands)", "lat": 51.6978, "lon": 5.3037, "arrival_date": "1940-05-18", "description": "3 days' rest after the Holland fighting."}
{"place": "Turnhout (Belgium)", "lat": 51.3225, "lon": 4.9442, "arrival_date": "1940-05-22", "description": "One day in Turnhout."}
{"place": "Vlissingen (Netherlands)", "lat": 51.4426, "lon": 3.5736, "arrival_date": "1940-05-23", "description": "In a beautiful North Sea resort; the 11th Battery sinks a picket boat. Limber position; haven't seen the sea yet."}
{"place": "Near Antwerp (Belgium)", "lat": 51.2194, "lon": 4.4025, "radius_km": 15, "arrival_date": "1940-05-24", "description": "3 days near Antwerp; after 5 hours of sleep straight into the firing position."}
{"place": "Auwegem near Ghent (Belgium)", "lat": 51.0543, "lon": 3.7174, "radius_km": 15, "arrival_date": "1940-05-26", "description": "Firing position, beginning of the Battle of Flanders. Advanced about 8 km daily; shelling of Thielt, Gynze, Diksmuide and Dunkirk."}
{"place": "Before Dunkirk / Houthem", "lat": 50.95, "lon": 2.5, "radius_km": 15, "arrival_date": "1940-05-31", "description": "Days of major fighting before Dunkirk, the English are withdrawing. Observation and shelling, fabulous air battles with Messerschmitts. Took part in the Lys crossing."}
{"place": "Arras / rest near Essen (northern France)", "lat": 50.291, "lon": 2.7778, "arrival_date": "1940-06-05", "description": "After driving via Ypres, Lille, Douai to Arras for rest near Essen. Recover with food, sleep, football, Skat and music."}
{"place": "Péronne/Somme", "lat": 49.9297, "lon": 2.9353, "arrival_date": "1940-06-12", "description": "Resting. Everyone slaughters and roasts chickens, pigeons and hares; the field kitchen takes a calf and a pig. Then march via Roye, Montdidier, Beauvais toward Paris."}
{"place": "Paris", "lat": 48.8566, "lon": 2.3522, "arrival_date": "1940-06-14", "description": "The IV./AR 256 is among the first troops to march into Paris, a grand parade on the Place de la Concorde."}
{"place": "Near Orléans", "lat": 47.9029, "lon": 1.9093, "radius_km": 20, "arrival_date": "1940-06-17", "description": "Pushes with a division's vanguard almost to Orléans, briefly deployed as an infantry shock troop, takes 300 prisoners. Lt. Kästner killed in action."}
{"place": "Angers on the Loire", "lat": 47.4784, "lon": -0.5632, "arrival_date": "1940-06-20", "description": "After day-marches of 160-200 km via Versailles and Chartres to Angers. Fired for the last time there; Wilhelm has a fever and diarrhea."}
{"place": "Near Poitiers", "lat": 46.5802, "lon": 0.3404, "radius_km": 15, "arrival_date": "1940-07-08", "description": "Were supposed to go to Biarritz, then re-routed. Waiting time in dumb cow-towns. Wilhelm is promoted to Gefreiter."}
{"place": "Parthenay", "lat": 46.6469, "lon": -0.2485, "arrival_date": "1940-07-27", "description": "Transferred to nice quarters, town about the size of Glauchau. Strolls through town, cinema, lunch — finally something civilized. In the cafés, pretty, heavily made-up girls."}
{"place": "Sillé-le-Guillaume ('Wilhelmsruhe', 40 km N of Le Mans)", "lat": 48.1883, "lon": -0.1203, "arrival_date": "1940-08-05", "description": "Via Thouars, Saumur, La Flèche, Le Mans, transferred to an old castle, later moves into a barracks camp (forest camp) with bathing facilities."}
{"place": "Leave in Chemnitz/Glösa", "lat": 50.862, "lon": 12.9013, "arrival_date": "1940-08-30", "arrival_mode": "rail", "description": "Wilhelm is on his first leave since the beginning of the war, with Marianne, and meets his daughter Helga for the first time."}
{"place": "Tessé-la-Madeleine (40 km W of Argentan)", "lat": 48.5575, "lon": -0.4128, "arrival_date": "1940-10-03", "arrival_mode": "rail", "description": "After leave, 24 hours in a 2nd-class compartment via Luxembourg to Argentan, then to quarters. Spa town Bagnoles nearby. End of October, main dressing station with guard duty."}
{"place": "Training grounds near Rennes (Brittany)", "lat": 48.1173, "lon": -1.6778, "radius_km": 30, "arrival_date": "1940-10-21", "description": "About 200 km west of Tessé for live-fire exercises at the training grounds. Wilhelm as ammunition driver without much to do."}
{"place": "Cherbourg", "lat": 49.6337, "lon": -1.6221, "arrival_date": "1940-11-02", "description": "Early in the morning, 200 km north; firing position as coastal defense. On the heights above the harbor, where German fighters are very busy at the airfield. From 1940-12-06 on, working as clerk at the motor-transport workshop (Schirrmeisterei). Christmas with roast pork, Stollen, and sparkling wine."}
