{"place": "Retreat via Rheine into the Lüneburg Heath", "lat": 53.0, "lon": 10.5, "radius_km": 60, "arrival_date": "1945-03-24", "description": "After the English crossed the Rhine at Wesel, the division is abruptly pulled out of Holland. March via Rheine eastward, heavy equipment blown up in the Lüneburg Heath."}
{"place": "Lenzen on the Elbe", "lat": 53.0979, "lon": 11.4667, "arrival_date": "1945-04-01", "description": "Retreat as far as Lenzen. Along the way meets the residents of Daber, who had been evacuated there. The unit is reconstituted as an artillery battery with 10.5 cm howitzers."}
{"place": "Fehrbellin", "lat": 52.8069, "lon": 12.7583, "arrival_date": "1945-04-10", "description": "Sent marching toward Berlin and deployed at Fehrbellin against the Russians pushing toward Berlin. April passes with various engagements."}
{"place": "Bridgehead near Dömitz (on the Elbe)", "lat": 53.1456, "lon": 11.2556, "arrival_date": "1945-05-01", "description": "Hitler's death announced. V-2 leadership has reached an agreement with the Americans. Wilhelm promoted to Unteroffizier. The Americans are only looking for specialists. At 8 PM, handover to the Russians — so swims across the Elbe on truck inner tubes at 8°C."}
{"place": "Herford", "lat": 52.1158, "lon": 8.6738, "arrival_date": "1945-05-04", "description": "By truck westward via Herford, 3 days and nights without roof or food on a sports field. Then loaded onto open freight cars, continuing toward Belgium."}
{"place": "Krefeld", "lat": 51.3388, "lon": 6.5853, "arrival_date": "1945-05-08", "description": "Slips away at the Krefeld suburban station with Kurt Günther and Gert Schrade. A little boy takes them along to his mother, who outfits them with work clothes. Night across country, then an estate with an opulent breakfast."}
{"place": "Wittlaer (north of Düsseldorf)", "lat": 51.2942, "lon": 6.7411, "arrival_date": "1945-05-10", "description": "Through the innkeepers' mediation, and with money from the battery cash box, gets hold of a boat; crosses the Rhine at Wittlaer unmolested."}
{"place": "Hagen / Haspe", "lat": 51.3484, "lon": 7.468, "arrival_date": "1945-05-11", "description": "From Hagen to Haspe by train. Big trouble at the ticket counter because of the foreign workers — mastered thanks to Schrade's English and French."}
{"place": "Trek through Sauerland / Westerwald / Vogelsberg / Rhön", "lat": 50.7, "lon": 9.0, "radius_km": 100, "arrival_date": "1945-05-12", "description": "3-week hike with a small KAF atlas and compass along ridge trails. Overnight in barns, food begged for. Friendliness diminishes the further east they go."}
{"place": "Vacha", "lat": 50.8272, "lon": 10.0408, "arrival_date": "1945-05-20", "description": "Crosses the Werra with difficulty. The GI on the stone bridge is just busy with a German soldier in full uniform, so the three slip past unnoticed."}
{"place": "Gotha", "lat": 50.9486, "lon": 10.7017, "arrival_date": "1945-05-22", "description": "Schrade splits off and goes to his uncle in Gotha. Wilhelm and Kurt Günther take the Autobahn as far as Chemnitz."}
{"place": "Borna on the Autobahn", "lat": 51.125, "lon": 12.4972, "arrival_date": "1945-05-28", "description": "Stopped by a GI near Borna at the American/Russian demarcation line, talk their way out of it. Reach the Russian side via the railway bridge. On 05/28 in Röhrsdorf at the wife of comrade Birka."}
{"place": "Chemnitz / Glösa", "lat": 50.862, "lon": 12.9013, "arrival_date": "1945-05-29", "description": "Around 8 PM rings the bell at Stiftstr. 39. Helga still remembers: Papa had very dirty feet. Return after 6 years to civilian and family life."}
