{"place": "Chemnitz, Kaserne Planitz/Yorkstraße", "lat": 50.8323, "lon": 12.9168, "arrival_date": "1939-07-18", "description": "Wilhelm wird zur Wehrmacht eingezogen zur Kurzausbildung bei der 8. Battr./Art. Regt. 256 (später 2./844), untergebracht in Baracken."}
{"place": "Gut bei Komotau (CSR)", "lat": 50.4601, "lon": 13.4175, "radius_km": 15, "arrival_date": "1939-09-04", "description": "Erste Nacht der Ausfahrt als 3. Welle zum Polenfeldzug, nach kurzer Mittagsankunft Fahrzeuge auf dem Hof zusammengestellt, zeitig schlafen gegangen."}
{"place": "Kostelitz bei Königgrätz (CSR)", "lat": 50.1257, "lon": 16.2076, "arrival_date": "1939-09-05", "description": "Nach Fahrt über Prag und Königgrätz in einer ehemaligen tschechischen Kaserne untergebracht, auf Stroh geschlafen, Kasernenbims und Ausfahrten ins Gelände. Bevölkerung sehr passiv und zurückhaltend."}
{"place": "Truppenübungsplatz Wahn bei Köln", "lat": 50.8658, "lon": 7.1427, "arrival_date": "1939-09-22", "description": "Nach 2 Tagen und Nächten Bahntransport über Rhein bei Rüdesheim im Westen angekommen, weitere Ausbildung auf dem Truppenübungsplatz."}
{"place": "Oggersheim (bei Ludwigshafen)", "lat": 49.4911, "lon": 8.3897, "arrival_date": "1939-10-04", "description": "Neuer Standort, friedensmäßiger Dienst, Marianne und Frau Fankhänel und Frau Behr zu Besuch, Auffallen und Strafexerzieren. Viel Kneipenzeit mit Skat, Schach und Billard."}
{"place": "Quartier bei Gießen", "lat": 50.5833, "lon": 8.6833, "radius_km": 20, "arrival_date": "1939-10-30", "description": "Nach Abfahrt aus Oggersheim um Mitternacht nach schrecklich kalter Fahrt eine Nacht in Privatquartier bei sehr netten Leuten."}
{"place": "Quartier bei Paderborn", "lat": 51.7189, "lon": 8.7575, "radius_km": 20, "arrival_date": "1939-10-31", "description": "Am Dienstag Richtung Westfalen gefahren, gegen Abend bei Paderborn Quartier bezogen, Aufnahme durch die Bevölkerung schlecht."}
{"place": "Nottuln (westlich Münster)", "lat": 51.9317, "lon": 7.3542, "arrival_date": "1939-11-02", "description": "Am Mittwoch nachmittag im neuen Bestimmungsort eingetroffen, 'stockkath.'. Privatquartier bei Küdde mit Auer, Bachinger und Müller. Rauchfänge voller Wurst und Schinken, die Einheimischen geizig. Befördert zum Oberkanonier."}
{"place": "Haltern am Stausee", "lat": 51.7433, "lon": 7.1842, "arrival_date": "1939-12-30", "description": "In einem feudalen Hotel untergebracht, im Saal Stroh aufgeschüttet, ca. 30 km von Dortmund, Wintersportaufenthalt. Wilhelm verbringt dort Silvester und den Januar."}
{"place": "Emmerich", "lat": 51.8336, "lon": 6.2419, "arrival_date": "1940-02-04", "description": "Kurzer Krankenträgerkursus mit Meinel und Max, gemütlicher Dienst aber schlechte Unterkunft."}
{"place": "Nottuln", "lat": 51.9317, "lon": 7.3542, "arrival_date": "1940-02-11", "description": "Wieder in Nottuln, wohnt nun bei einem Arbeiter in der Siedlung mit 6 Kindern, später bei Schürmanns mit voller Pension. Fährt jetzt den Battr.-Offizier im Kübelwagen."}
{"place": "Dorf an der holländischen Grenze (bei Borken)", "lat": 51.85, "lon": 6.85, "radius_km": 10, "arrival_date": "1940-03-10", "description": "Stellungswechsel, auf einem Gehöft ¼ Stunde von der Schreibstube. Ungerechte Behandlung durch neuen Major, SS-Kompanie liegt daneben, zackiger Dienst, Munition wird aufgeladen."}
{"place": "Weseke (bei Borken)", "lat": 51.8842, "lon": 6.7778, "arrival_date": "1940-03-25", "description": "Ostern über mit Waldlauf und Skat verbracht, Flak hört man vom Industriegebiet herüber. Übungsmanöver mit allen Raffinessen. Telefon Weseke 268."}
{"place": "Hüthum (bei Emmerich)", "lat": 51.8236, "lon": 6.2803, "arrival_date": "1940-04-19", "description": "Die schönen Quartiere in Weseke gegen bescheidenes Strohlager getauscht. Helga wird am 07.05.1940 in Chemnitz geboren."}
{"place": "Elten", "lat": 51.8731, "lon": 6.1736, "arrival_date": "1940-05-10", "description": "Als Heeresartillerie bei der 1. Pz.-Armee Überschreitung der holl. Grenze bei Elten mit der SS, Beginn des Westfeldzuges."}
{"place": "Vor Arnheim", "lat": 51.9851, "lon": 5.8987, "arrival_date": "1940-05-11", "description": "Erstes Mal Feuerstellung bezogen, Beschuss des Fort Westerfort. Nach Isselübergang weiter im großen Tempo."}
{"place": "Wageningen", "lat": 51.9692, "lon": 5.6654, "arrival_date": "1940-05-11", "description": "Vormarsch kam vor der Grabbelinie zum Stehen, fast 3 Tage ununterbrochen geschossen, 1000 t Granaten und 30 Stukas brechen die Stellung."}
{"place": "Vor Utrecht", "lat": 52.0907, "lon": 5.1214, "radius_km": 10, "arrival_date": "1940-05-14", "description": "Am letzten Tag vor der Kapitulation bildete die ganze 11. Battr. einen Stoßtrupp bis 10 km vor Utrecht, gegenüber eine Brigade Holländer, die sich ergibt."}
{"place": "Hertogenbusch (Holland)", "lat": 51.6978, "lon": 5.3037, "arrival_date": "1940-05-18", "description": "3 Tage Ruhe nach Holland-Kampf."}
{"place": "Turnhout (Belgien)", "lat": 51.3225, "lon": 4.9442, "arrival_date": "1940-05-22", "description": "Ein Tag in Turnhout."}
{"place": "Vlissingen (Holland)", "lat": 51.4426, "lon": 3.5736, "arrival_date": "1940-05-23", "description": "In einem schönen Nordseebad, die 11. Battr. versenkt ein Vorpostenboot. Protzenstellung, See noch nicht gesehen."}
{"place": "Nähe Antwerpen (Belgien)", "lat": 51.2194, "lon": 4.4025, "radius_km": 15, "arrival_date": "1940-05-24", "description": "3 Tage in der Nähe von Antwerpen, nach 5 Stunden Schlaf sofort in Feuerstellung."}
{"place": "Auwegen bei Gent (Belgien)", "lat": 51.0543, "lon": 3.7174, "radius_km": 15, "arrival_date": "1940-05-26", "description": "Feuerstellung, Beginn der Flandernschlacht. Täglich ca. 8 km vorgerückt, Beschuss von Thielt, Gynze, Dixmuiden und Dünkirchen."}
{"place": "Vor Dünkirchen / Houthem", "lat": 50.95, "lon": 2.5, "radius_km": 15, "arrival_date": "1940-05-31", "description": "Großkampftage vor Dünkirchen, die Engländer ziehen sich zurück. Beobachtung und Beschuss, fabelhafte Luftkämpfe mit Messerschmidts. Lyübergang mitgemacht."}
{"place": "Arras / Ruhe bei Essen (Nordfrankreich)", "lat": 50.291, "lon": 2.7778, "arrival_date": "1940-06-05", "description": "Nach Fahrt über Ypern, Lille, Douai nach Arras zur Ruhe bei Essen. Erholen sich mit Essen, Schlafen, Fußball, Skat und Musik."}
{"place": "Peronne/Somme", "lat": 49.9297, "lon": 2.9353, "arrival_date": "1940-06-12", "description": "Rast. Alles schlachtet und brät Hühner, Tauben und Hasen, die Küche ein Kalb und ein Schwein. Dann Marsch über Roy, Montdidier, Bauvais Richtung Paris."}
{"place": "Paris", "lat": 48.8566, "lon": 2.3522, "arrival_date": "1940-06-14", "description": "Die IV./AR 256 ist als erste Truppe mit in Paris einmarschiert, große Parade auf dem Place de la Concorde."}
{"place": "Bei Orleans", "lat": 47.9029, "lon": 1.9093, "radius_km": 20, "arrival_date": "1940-06-17", "description": "Mit der Vorhut einer Division fast bis Orleans vorgestoßen, dabei kurzzeitig als Infanterie-Stoßtrupp eingesetzt, 300 Gefangene gemacht. Lt. Kästner gefallen."}
{"place": "Angers an der Loire", "lat": 47.4784, "lon": -0.5632, "arrival_date": "1940-06-20", "description": "Nach Tagesmärschen von 160-200 km über Versailles und Chartres nach Angers. Dort letztes Mal geschossen, Wilhelm hat Fieber und Durchfall."}
{"place": "Bei Poitiers", "lat": 46.5802, "lon": 0.3404, "radius_km": 15, "arrival_date": "1940-07-08", "description": "Sollten erst nach Biarritz, dann anders entschieden. Wartezeit bei blöden Kuhdörfern. Wilhelm wird zum Gefreiten befördert."}
{"place": "Parthenay", "lat": 46.6469, "lon": -0.2485, "arrival_date": "1940-07-27", "description": "Verlegt in schöne Quartiere, so groß wie Glauchau. Stadtbummel, Kino, Mittagessen, endlich etwas zivilisiert. In den Cafes hübsche, sehr geschminkte Mädchen."}
{"place": "Sillé-le-Guillaume ('Wilhelmsruhe', 40 km n. Le Mans)", "lat": 48.1883, "lon": -0.1203, "arrival_date": "1940-08-05", "description": "Über Thouars, Saumur, La Flèche, Le Mans in eine alte Burg verlegt, später in ein Barackenlager (Waldlager) mit Badegelegenheit umgezogen."}
{"place": "Urlaub in Chemnitz/Glösa", "lat": 50.862, "lon": 12.9013, "arrival_date": "1940-08-30", "description": "Wilhelm ist im ersten Urlaub seit Beginn des Krieges bei Marianne und sieht seine Tochter Helga zum ersten Mal."}
{"place": "Tessé-la-Madeleine (40 km westl. Argentan)", "lat": 48.5575, "lon": -0.4128, "arrival_date": "1940-10-03", "description": "Nach Urlaub in Luxemburg in 2. Klasse-Abteil 24 Stunden bis Argentan, dann in die Unterkunft. Badeort Bagnoles in der Nähe. Ende Oktober Hauptverbandsplatz mit Wache."}
{"place": "Truppenübungsplatz bei Rennes (Bretagne)", "lat": 48.1173, "lon": -1.6778, "radius_km": 30, "arrival_date": "1940-10-21", "description": "Ca. 200 km westlich von Tessé zum Schießen auf dem Truppenübungsplatz. Wilhelm als Muni-Fahrer ohne große Aufgabe."}
{"place": "Cherbourg", "lat": 49.6337, "lon": -1.6221, "arrival_date": "1940-11-02", "description": "Am frühen Morgen 200 km nach Norden, Feuerstellung als Küstenschutz. Auf der Höhe über dem Hafen, wo auf dem Flugplatz mächtiger Betrieb unserer Jäger war. Ab 06.12.1940 als Schreiber in der Schirrmeisterei. Weihnachten mit Schweinebraten, Stollen, Sekt."}
{"place": "Dobrudscha (Rumänien)", "lat": 44.5, "lon": 28.3, "radius_km": 40, "arrival_date": "1941-01-23", "description": "Nach langer Reise sogar durch Chemnitz in der Dobrudscha angekommen. In einem ehemaligen deutschen Dorf, dessen Bewohner umgesiedelt sind; Rumänen aus Mazedonien kommen. Mildes Frühlingswetter."}
{"place": "Constanta (Rumänien)", "lat": 44.176, "lon": 28.652, "arrival_date": "1941-02-05", "description": "Südlich der Donaumündung. Vorbereitung für neue Fahrt: Impfungen, Tropentauglichkeitsuntersuchung, Vortrag des Truppenarztes. Dame-Turniere um Eier. Sehr trostlos."}
{"place": "Kotel (Bulgarien)", "lat": 42.8879, "lon": 26.4442, "arrival_date": "1941-03-06", "description": "Nach Fahrt über Silistra, Sumen und dem 1100 m hohen Vribiga/Varbitsa-Paß angekommen. Bei einer 90 Jahre alten Frau untergebracht, bestes Quartier des Krieges. Heldengedenktag mit Parade, bulgarischer Gottesdienst."}
{"place": "Unterwegs durch Bulgarien (Maritzatal)", "lat": 42.15, "lon": 25.0, "radius_km": 50, "arrival_date": "1941-04-02", "description": "Plötzlich von Kotel abgefahren, herzlicher Abschied. Herrliche Fahrt auf z.T. halsbrecherischen Straßen durch Gebirge, sehr heiß und staubig im Maritzatal."}
{"place": "Bulgarische Grenze / von Sofia nach NW", "lat": 42.6977, "lon": 23.3219, "radius_km": 50, "arrival_date": "1941-04-06", "description": "Beginn des Angriffs auf Jugoslawien. Von Sofia aus nach NW auf dem Marsch nach Jug. Bis heute bei Wilhelm kein Schuss gefallen."}
{"place": "Vor Birot (Jugoslawien)", "lat": 43.0, "lon": 22.5, "radius_km": 30, "arrival_date": "1941-04-11", "description": "Erster Tag in Jug., Unterstützung der Infanterie abseits der Vormarschstraße. Scheußliches Wetter mit Regen und Schnee, Wintersachen wieder hervorgeholt."}
{"place": "Smederevo an der Donau (vor Belgrad)", "lat": 44.6623, "lon": 20.9251, "arrival_date": "1941-04-15", "description": "Sehr schnell an die Donau nach Belgrad gelangt. Dann Rückmarsch nach SW, Ziel unklar."}
{"place": "Palanka (Jugoslawien)", "lat": 44.3517, "lon": 20.9575, "arrival_date": "1941-04-28", "description": "Standort nochmal geändert. Geschäftszimmer in einer Zuckerfabrik, richtiger Sommer, Flieder blüht. Fahrzeuge werden lackiert für die große Fahrt zurück nach Deutschland."}
{"place": "Gleiwitz (Oberschlesien)", "lat": 50.2949, "lon": 18.6714, "arrival_date": "1941-05-11", "description": "Die große Süd-Ostreise zu Ende, Einzug in eine große neue Kaserne. Kein Urlaub gestattet, Streifendienst, Rauchverbot, Marianne besucht für ein Wochenende trotz Ärger mit dem Offiziersposten."}
{"place": "Im polnischen Wald bei Gleiwitz", "lat": 50.3, "lon": 19.5, "radius_km": 30, "arrival_date": "1941-06-11", "description": "Erster Schritt zurück in das Zigeunerdasein. Im Wald in Zelten und auf den Fahrzeugen geschlafen, Übergang von Zivilisation in die Wildnis sehr krass."}
{"place": "Ort in Polen", "lat": 51.0, "lon": 22.5, "radius_km": 80, "arrival_date": "1941-06-14", "description": "Nach 4 Tagen Marsch am vorläufigen Ziel. Schule als Quartier, Ort zu 90% von Juden bewohnt. Viele Bekannte vom Balkan getroffen; sehr elende Verpflegung. Alle wissen, dass es gegen Russland geht."}
{"place": "Sokal am Bug", "lat": 50.4836, "lon": 24.2856, "arrival_date": "1941-06-22", "description": "Beginn des Russlandfeldzuges um 3:15 Uhr. Furchtbarer Feuerüberfall der Artillerie auf das Ostufer des Bug, überall brennt es. Wilhelm fährt Mercedes 170V des Chefs Hptm. Baumann in der Protzenstellung."}
{"place": "Vor Dubno / Ostrog", "lat": 50.3271, "lon": 26.5161, "radius_km": 30, "arrival_date": "1941-06-27", "description": "Nach dem Vormarsch mit der Panzergruppe Kleist 6 Tage vor Ostrog, große russische Fliegerangriffe. Am 28.06. von 4 bis 20 Uhr russische Flieger über uns. Stalin nennt sie 'Gespensterdivision'."}
{"place": "Vor Berditschew", "lat": 49.8983, "lon": 28.5958, "arrival_date": "1941-07-15", "description": "Eine reichliche Woche vor Berditschew, Russen decken den Rückzug mit schwerer Artillerie. 3 Tage und Nächte langsames Vorrücken ohne Pause."}
{"place": "Vor Uman (25 km)", "lat": 48.7469, "lon": 30.2203, "radius_km": 15, "arrival_date": "1941-07-27", "description": "Nach 4 Tagen wirklicher Ruhe wieder am Ball. Die alte 11. Pz.-Div. hat uns angefordert. Russen im aussichtslosen Kampf unter politischen Kommissaren."}
{"place": "Vor Kriwoi Rog", "lat": 47.9105, "lon": 33.3918, "arrival_date": "1941-08-15", "description": "200 km gefahren ohne den Feind zu sehen, vor Kriwoi Rog. Die Bevölkerung ist hier freundlich, froh dass die Russen weg sind. Fliegerangriff: 20 Verwundete bei anderer Battr. beim Gewehrappell."}
{"place": "Vor Saporoschje am Dnjepr", "lat": 47.8333, "lon": 35.1667, "arrival_date": "1941-08-18", "description": "In Feuerstellung kurz vor dem Dnjepr bei Saporoschje, 32°C im Schatten, 40 in der Sonne. Viele Volksdeutsche, die uns begeistert empfangen."}
{"place": "Vor Dnjepropetrowsk", "lat": 48.4647, "lon": 35.0461, "arrival_date": "1941-08-28", "description": "Einen der härtesten Einsätze mitgemacht. Danach ca. 100 km in sog. Ruhestellung zurückverlegt. Rumänen und Italiener sollen die Front übernehmen."}
{"place": "Mighorod", "lat": 49.9719, "lon": 33.6056, "radius_km": 40, "arrival_date": "1941-09-21", "description": "In elende Hütte geflüchtet, Front weit weg. Kiew gefallen, 5000 Zivilisten-Gefangene auf dem Dorfplatz. Gewaltmarsch 250 km nach Osten durch russ. Front durchgebrochen. Bombenangriff durch Jak-2 mit Raketen; Wagen mit halbem Lenkrad."}
{"place": "Nördlich Rostow", "lat": 47.7, "lon": 40.0, "radius_km": 30, "arrival_date": "1941-10-30", "description": "Langsamer Marsch Richtung Rostow mit einigen Ruhepausen, ungefähr nördlich Rostow. Russische Nachtbomber rauben die Nervenkraft."}
{"place": "Vor Rostow", "lat": 47.5, "lon": 39.8, "radius_km": 20, "arrival_date": "1941-11-09", "description": "Im Schlamm steckengeblieben, 3 km in 48 Stunden. Straßen gibt es nicht mehr, Fahrt quer über die Felder mit Panzern vorneweg. Nachts 0° auf dem Fahrzeug, sehr ungemütlich."}
{"place": "35 km vor Schachty", "lat": 47.5, "lon": 39.85, "radius_km": 10, "arrival_date": "1941-11-19", "description": "In einem deutschen Dorf, wo alles kaputt ist, notdürftig gebaut. Stellungskrieg. 8 Tage in einem Haus mit 2 Uffz. und Bewohnern (13 Personen, 25 insgesamt in 3 Räumen). Russ. Säugling wird gestillt, Kinder entlaust."}
{"place": "Quartier vom 26.10. bezogen (Rußland)", "lat": 47.6, "lon": 39.7, "radius_km": 20, "arrival_date": "1941-12-03", "description": "Ca. 40 km zurück, alte Quartiere bezogen. Zeit zum Schlafen und Waschen. Bei der I-Staffel Wagen repariert, viele Auflösungserscheinungen in der Abteilung. Frost seit 12.11."}
{"place": "Uspenskaja", "lat": 47.75, "lon": 38.8, "radius_km": 15, "arrival_date": "1941-12-26", "description": "Am 2. Feiertag Stellungswechsel zu den Slowaken, wo die Russen durchgebrochen sein sollten. Protzenstellung in Uspenskaja. Sylvester mit gutem Essen und 2 Flaschen Schnaps verbracht; Iwan lässt ein paar Bomben fallen."}
{"place": "Feuerstellung bei Goldajewska (nördlich Rostow)", "lat": 47.8, "lon": 39.9, "radius_km": 15, "arrival_date": "1942-01-15", "description": "Protzenstellung in einem Dorf hinter der Front, nur 14 Mann, hauptsächlich Spies und Uffz. Hasenjagd, sehr ruhig. 1 Haus zu 14 Mann. Hptm. Baumann ist inzwischen an schwerer Verwundung verstorben."}
{"place": "Stalino", "lat": 48.0159, "lon": 37.8029, "arrival_date": "1942-02-08", "description": "Zur Erholung beim Restkommando. 3 Tage Fahrt mit Zugmaschine, Eisenbahn, Lkw, zu Fuß. Quartier bei älterem Ehepaar in Parteigenossen-Siedlung. Zahnarzt, Entlausen, Baden, Kino. Markt mit Sonnenblumenöl, türkischem Kaffee."}
{"place": "Wieder in Stellung (bei Uspenskaja)", "lat": 47.75, "lon": 38.8, "radius_km": 15, "arrival_date": "1942-03-22", "description": "Abends bei der Battr. angekommen, gute Verpflegung mit Beefsteak und Kartoffelbrei. Winter will nicht weichen, -35°C, viel Schnee."}
{"place": "Stalino", "lat": 48.0159, "lon": 37.8029, "arrival_date": "1942-04-03", "description": "Mit unserem Wagen in 18-stündiger Geländefahrt nach Stalino zur Reparatur. Federbruch, Spurstange viermal verbogen. Hptm. Ertel nimmt Wilhelm Anfang Mai mit in den Urlaub."}
{"place": "Urlaub in Chemnitz", "lat": 50.8323, "lon": 12.9168, "arrival_date": "1942-05-03", "description": "Wilhelm zum ersten Mal seit Kriegsbeginn längerer Urlaub zu Hause bei Marianne und Helga."}
{"place": "Görlitz", "lat": 51.1504, "lon": 14.9886, "arrival_date": "1942-06-01", "description": "Wilhelm einige Zeit in der Kaserne bei dem Heimatkommando. Marianne besucht ihn mit Helga."}
{"place": "Jägerndorf (Sudetenland)", "lat": 50.09, "lon": 17.7011, "arrival_date": "1942-06-22", "description": "Nach 2½ Tagen Fahrt in großem Barackenlager untergebracht. Trödeln, Kino, Bad. Marianne und Helga besuchen Wilhelm Mitte Juli. Zweites Kind (Stefan) unterwegs."}
{"place": "Deutsch Rasselwitz auf Transport", "lat": 50.3708, "lon": 17.6547, "arrival_date": "1942-07-22", "description": "Nach Abfahrt um 5 Uhr wohnlich im Zug eingerichtet. Verpflegung reichlich. Auf Transport allein mit einer Zugmaschine per Bahn nach Osten."}
{"place": "Dnjepropetrowsk", "lat": 48.4647, "lon": 35.0461, "arrival_date": "1942-07-29", "description": "Seit einiger Zeit in Russland unterwegs, heute kurz vor Dnjepropetrowsk. Sehr warm."}
{"place": "Stalino", "lat": 48.0159, "lon": 37.8029, "arrival_date": "1942-08-01", "description": "Abends eingetroffen, Hptm. Ertel am Bahnhof. Die Abt. ist schon fort zum Einsatz südlich Rostow, Wilhelm mit der Zugmaschine zum Nachfahren in Marsch gesetzt."}
{"place": "Uspenskaja", "lat": 47.75, "lon": 38.8, "arrival_date": "1942-08-02", "description": "Erster Teil der Fahrt im sommerlichen Gelände. In der Frontsammelstelle 3 Urlauber der Abteilung aufgeladen."}
{"place": "Taganrog", "lat": 47.2362, "lon": 38.8969, "arrival_date": "1942-08-03", "description": "Übernachtung. Kino, Soldatenheim und im Asowschen Meer gebadet. Angenehm warm. Morgen weiter durch Rostow, die Abt. soll schon 180 km südlich sein."}
{"place": "80 km südlich Rostow", "lat": 46.5, "lon": 39.7, "radius_km": 20, "arrival_date": "1942-08-05", "description": "Die Abt. erreicht, Wilhelm fährt die Zugmaschine bei der Nachschubstaffel. Sehr lebhafte Begrüßung bei der 2. Battr. durch Winkler, Findewirth und Bauer."}
{"place": "Krasnodar (Kuban)", "lat": 45.0355, "lon": 38.9753, "arrival_date": "1942-08-10", "description": "Als Vorausabt. Krasnodar erreicht, Kuban und Kaukasusberge in Sicht. Unerträgliche Hitze, am Abend kocht die Maschine. In Afrika kann es nicht schlimmer sein."}
{"place": "Nähe Krymskaja (am Kaukasus)", "lat": 44.9364, "lon": 37.9794, "arrival_date": "1942-08-19", "description": "Langsames Vorankommen im hügeligen Gelände. Russische Infanterie-Jungen werden halbtot erschlagen, Hitze auch nachts toll, Mücken."}
{"place": "Vor Noworossisk", "lat": 44.7235, "lon": 37.7687, "radius_km": 15, "arrival_date": "1942-08-28", "description": "Nur noch eine Bergkette trennt uns von Noworossisk. Flaggenhissung auf dem Elbrus im Radio gehört. Sicherungsnächte vorn. Auszeichnung mit Medaille 'Winterschlacht im Osten'."}
{"place": "Taganrog", "lat": 47.2362, "lon": 38.8969, "arrival_date": "1942-09-04", "description": "Mit 10 Kameraden unter Oschirrm. Braun zum Zugmaschinen abholen geschickt. Kino, Konzert, Theater, Schlafen in weißen Betten, Baden, Melonen kaufen."}
{"place": "Krasnodar", "lat": 45.0355, "lon": 38.9753, "arrival_date": "1942-09-17", "description": "Festliegen, weil die Abt. hier durchkommen soll. Schirrm. Braun nach Rostow zu Ersatzteilen."}
{"place": "Richtung Maikop / vor Tuapse", "lat": 44.6098, "lon": 40.1006, "radius_km": 30, "arrival_date": "1942-09-23", "description": "Ganz plötzlich auf die Battr. gestoßen, nun Richtung Maikop. Großer Angriff auf Tuapse soll gestartet werden, die Flieger bereiten schon vor. Kaviar am Schwarzen Meer."}
{"place": "Im Wald vor Tuapse (Kaukasus)", "lat": 44.2, "lon": 39.3, "radius_km": 15, "arrival_date": "1942-10-02", "description": "Wohnbunker im Wald, urwaldartiges Berggelände. Über 500 Bunker genommen, Feldstellungen und Baumsperren durchbrochen. Gelände steil wie Erzgebirge, Geschütze müssen ins Tal. Kam. Meinel gefallen an der Straße nach Now."}
{"place": "Krasnodar", "lat": 45.0355, "lon": 38.9753, "arrival_date": "1942-10-17", "description": "Maschine kaputt beim Wasserholen, Motorschaden und Vorderachse abgerissen. Mit Mühe nach Krasnodar, mit der Bahn zur Heereswerkstatt in Rostow verladen."}
{"place": "Stalino", "lat": 48.0159, "lon": 37.8029, "arrival_date": "1942-10-22", "description": "Seit 19.10. hier mit dem Waggon, weil in Rostow drin kein Platz ist. Durchfall, Fieber und Kopfschmerzen auf der luftigen Zugmaschine."}
{"place": "Rostow", "lat": 47.2357, "lon": 39.7015, "arrival_date": "1942-11-01", "description": "Endlich hier eingetroffen. In einer neuen, unbeschädigten Fabrik. Wilhelm muss selbst an der Reparatur mithelfen, sonst dauert es Wochen."}
{"place": "Krasnodar", "lat": 45.0355, "lon": 38.9753, "arrival_date": "1942-11-20", "description": "Bei J-Staffel eingetroffen mit Hollstein, Post vorgefunden. Fährt weiter zur Kolonne. 30 km laufen durch Schlamm und Regen zur Truppe."}
{"place": "Rostow", "lat": 47.2357, "lon": 39.7015, "arrival_date": "1942-11-30", "description": "Von vorn wieder zurück. Quartier mit Strohsack bei der O.T., elektr. Licht, Kino im Keller, alte Küche. Weihnachten mit Schweinebraten, Stollen, Sekt, Rotwein im Hotel."}
{"place": "Unterwegs", "lat": 47.5, "lon": 37.0, "radius_km": 50, "arrival_date": "1943-02-07", "description": "Mit Daubles Zugmaschine und Restkommando aus dem Werk in Rostow abgefahren. Russe soll bereits in Rostow sein. Post dauert nun lange."}
{"place": "Dnjepropetrowsk", "lat": 48.4647, "lon": 35.0461, "arrival_date": "1943-02-13", "description": "Auch Russe spukt mit Panzern. Richtiges Etappenleben mit Kino, Speisehäusern. Kameraden durchreisen. Quartier bei älterer Frau mit Messer, Gabel, Teller und Tasse."}
{"place": "Saporoschje", "lat": 47.8333, "lon": 35.1667, "arrival_date": "1943-03-02", "description": "In Saporoschje übernachtet auf der Fahrt zur Krim."}
{"place": "Melitopol", "lat": 46.8428, "lon": 35.3675, "arrival_date": "1943-03-03", "description": "Im Soldatenheim gegessen. Regen und Graupel."}
{"place": "Simferopol (Krim)", "lat": 44.9572, "lon": 34.1108, "arrival_date": "1943-03-07", "description": "Maschinen gleich losgeworden. Theater und Kino, im Soldatenheim gut bewirtet. Nächster Tag 40 km zurück, wo die Abt. gesammelt wird."}
{"place": "Krim-Dorf am Jaila-Gebirge", "lat": 45.0, "lon": 34.0, "radius_km": 30, "arrival_date": "1943-03-11", "description": "Bei der Kompanie in einem Dorf mitten in der Steppe. Komp. besteht hauptsächlich aus Urlaubern der Abt., fast alles Bekannte. Warten auf Überquerung der Abt."}
{"place": "Kubanbrückenkopf (bei Temrjuk)", "lat": 45.2783, "lon": 37.3894, "radius_km": 15, "arrival_date": "1943-04-21", "description": "Nach 4 Tagen Marsch und Überfahrt bei der Battr. eingetroffen. Hügeliges Gelände, gemütliche Bunker. Großes Hallo bei der Begrüßung. Wilhelm seit 01.12.1942 Obergefreiter."}
{"place": "Kuban am Strand (Asowsches Meer)", "lat": 45.4, "lon": 37.5, "radius_km": 10, "arrival_date": "1943-05-06", "description": "Stellungswechsel an den Strand, weil der Russe Landungsversuch gemacht hat. Bauers Lkw samt Haus durch weggeworfene Zigarette verbrannt. Stör und Kaviar gegessen."}
{"place": "Kuban", "lat": 45.2, "lon": 37.5, "radius_km": 15, "arrival_date": "1943-05-15", "description": "Zurück in alter Stellung in den Bergen. Sehr heiß, nicht mehr baden. Tropenbekleidung bekommen. Spieß Karius versetzt."}
{"place": "Hauptverbandsplatz (Kuban)", "lat": 45.3, "lon": 37.5, "radius_km": 20, "arrival_date": "1943-05-20", "description": "Wilhelm bei Unfall durch eine MP-Kugel in den Oberschenkel getroffen, ca. 20 cm langer Durchschuss von unten nach oben. Wartet auf Rücktransport."}
{"place": "Temrjuk", "lat": 45.2783, "lon": 37.3894, "arrival_date": "1943-05-21", "description": "Zur Krankensammelstelle in Temrjuk, von da am nächsten Tag mit Lazarettschiff in 20-stündiger Fahrt nach Kertsch."}
{"place": "Kertsch", "lat": 45.3561, "lon": 36.4675, "arrival_date": "1943-05-22", "description": "Nach Krim-Überfahrt auf den Zug. Durch Tetanusspritze Nesselfieber. Lazarette werden für kommende Offensive frei gemacht, hoffentlich ins Reich."}
{"place": "Cherson", "lat": 46.6354, "lon": 32.6169, "arrival_date": "1943-05-27", "description": "Im Kriegslazarett angekommen. Bein heilt, großer Verband weg, nur noch zwei Pflaster. Tischtennis im Hof."}
{"place": "Winniza", "lat": 49.2331, "lon": 28.4682, "arrival_date": "1943-06-11", "description": "Mit Lazarettzug nach Winniza verlegt. Neuerdings werden ausgeheilte Patienten zum Ersatzbataillon geschickt. Mit Sicherheit nach Chemnitz."}
{"place": "Chemnitz", "lat": 50.8323, "lon": 12.9168, "arrival_date": "1943-07-15", "description": "Bei der Genesungskompanie in der Krone untergebracht, 13 Sonntage zu Hause verbracht. Wird von einem Offizier zur Raketentruppe (V2) als Zugmaschinenfahrer geworben."}
{"place": "Pommern bei Greifswald", "lat": 54.0866, "lon": 13.3816, "radius_km": 20, "arrival_date": "1943-10-15", "description": "In Greifswald übernachtet. Schlafen in einer Scheune, sehr primitiv, kein Licht. Kartoffeln gelesen, Ausflug an die Ostseeküste mit Kaffee und Kuchen."}
{"place": "Schneidemühl (Darjeskaserne)", "lat": 53.1505, "lon": 16.7373, "arrival_date": "1943-10-24", "description": "In der Kaserne angekommen. Rechnen zur Ersatztruppe, weniger Geld. Verein sehr gemischt, 18-50 Jahre. Schriftliche Geheimhaltungspflicht. Theater, Kino, Militärkonzert."}
{"place": "Daber (Krs. Naugard, bei Stettin)", "lat": 53.5833, "lon": 15.3167, "arrival_date": "1943-11-13", "description": "Mit Vorkommando zum Quartiermachen. Privatquartier bei Fam. Rathko in der Ad.-Mitl.-Str., Dachstube. Hier soll die Battr. aufgestellt werden, viel Rechnungsführertätigkeit. Weihnachten 1943 zu Hause in Chemnitz."}
{"place": "Peenemünde", "lat": 54.1381, "lon": 13.7742, "arrival_date": "1944-01-13", "description": "Zu einem 8-Tage-Kommando, Rakete in Peenemünde mit Zugmaschine abholen. Interessante Dinge gesehen an der Raketenversuchsstation."}
{"place": "Übungsplatz im Generalgouvernement (Richtung Bialystok)", "lat": 53.1325, "lon": 23.1688, "radius_km": 100, "arrival_date": "1944-03-19", "description": "Zu Kommando gefahren, zuerst bei Zahlmeister in Köslin. Wilhelm als Rechnungsführer in Baracken mit Fourier, Radio, Kino, Soldatenheim. Übungsschießen über mehrere 100 km Richtung Bialystok."}
{"place": "Daber", "lat": 53.5833, "lon": 15.3167, "arrival_date": "1944-04-01", "description": "Fuhr über Leipzig zurück, Zwischenstopp in Berlin. In Stettin Firma Trompetter und Geck besucht. Kam nachts 24 Uhr an, gerade zur Geburtstagsfeier mit Torte."}
{"place": "Peenemünde / Zinnowitz", "lat": 54.1381, "lon": 13.7742, "arrival_date": "1944-08-20", "description": "Zum Übungsschießen, konnte deshalb nicht zu Günters Geburt am 11.08. nach Hause. Übungsraketen V2 von Greifswalder Oie 110 km hoch, Wasserfall im wenigen Kilometern vom Startplatz. Rechnungsführer und Fourier für 180 Mann."}
{"place": "Münster", "lat": 51.9607, "lon": 7.6261, "arrival_date": "1944-10-24", "description": "Von Leipzig D-Zug bis Hannover, dann über Löhne, Hamm, Bielefeld, Münster. Warten auf den nächsten Zug auf einer Wiese vor der Stadt. Münster ziemlich erledigt."}
{"place": "Bei Münster (nördlich von Darup)", "lat": 52.0, "lon": 7.5, "radius_km": 15, "arrival_date": "1944-10-27", "description": "V2-Stellung nördlicher als 1939. Zahlmeisterei in einer Schule. Fliegeralarm ständig. Zwei Plünderungsfahrten nach Arnheim (Holland) nach englischem Luftlandeangriff. Ehrenposten bei Speer-Besuch im Schloss Vallar."}
{"place": "Den Haag / S'Gravenhage (Scheveningen)", "lat": 52.0705, "lon": 4.3007, "arrival_date": "1945-01-24", "description": "V2 wird von der Mole Scheveningen nach London geschossen. Villa in parkähnlichem Villenvorort bewohnt, Zimmer mit Glastüren zum Garten. Bibliothek mit verbotenen Büchern (Mann, Feuchtwanger). Als NS-Richtmann eingesetzt."}
{"place": "Rückmarsch über Rheine in die Lüneburger Heide", "lat": 53.0, "lon": 10.5, "radius_km": 60, "arrival_date": "1945-03-24", "description": "Nachdem Engländer bei Wesel den Rhein überschritten, Division überraschend aus Holland zurückgezogen. Marsch über Rheine Richtung Osten, schweres Material in der Lüneburger Heide gesprengt."}
{"place": "Lenzen an der Elbe", "lat": 53.0979, "lon": 11.4667, "arrival_date": "1945-04-01", "description": "Rückmarsch bis Lenzen. Unterwegs die Bevölkerung aus Daber getroffen, die dorthin evakuiert war. Truppe wird als Artillerie-Battr. mit 10,5 cm Haubitzen aufgestellt."}
{"place": "Fehrbellin", "lat": 52.8069, "lon": 12.7583, "arrival_date": "1945-04-10", "description": "Richtung Berlin in Marsch gesetzt und bei Fehrbellin gegen die auf Berlin vorstoßenden Russen eingesetzt. Der April geht mit verschiedenen Einsätzen vorbei."}
{"place": "Brückenkopf bei Dömitz (an der Elbe)", "lat": 53.1456, "lon": 11.2556, "arrival_date": "1945-05-01", "description": "Hitlers Tod verkündet. V-2-Leitung hat mit den Amis Vereinbarung getroffen. Wilhelm als Uffz. befördert. Amis suchen nur Spezialisten. Um 20 Uhr Übergabe an Russen, deshalb mit Autoschläuchen bei 8°C durch die Elbe geschwommen."}
{"place": "Herford", "lat": 52.1158, "lon": 8.6738, "arrival_date": "1945-05-04", "description": "Mit Lkw Richtung Westen über Herford, 3 Tage und Nächte ohne Dach und Essen auf einem Sportplatz. Dann auf offene Güterwagen verladen, weiter Richtung Belgien."}
{"place": "Krefeld", "lat": 51.3388, "lon": 6.5853, "arrival_date": "1945-05-08", "description": "Auf dem Vorortbahnhof Krefeld abgehauen mit Kurt Günther und Gert Schrade. Ein kleiner Junge nimmt sie mit zu seiner Mutter, die sie mit Arbeitsklamotten versieht. Nacht quer Feld, dann Rittergut mit opulentem Frühstück."}
{"place": "Wittlaer (nördlich Düsseldorf)", "lat": 51.2942, "lon": 6.7411, "arrival_date": "1945-05-10", "description": "Durch Vermittlung der Wirtsleute und gegen Geld aus der Batteriekasse ein Boot bekommen, bei Wittlaer unbehelligt über den Rhein gesetzt."}
{"place": "Hagen / Haspe", "lat": 51.3484, "lon": 7.468, "arrival_date": "1945-05-11", "description": "Von Hagen nach Haspe mit dem Zug. Am Schalter wegen Fremdarbeitern große Schwierigkeiten, Dank englisch/französisch-Kenntnissen von Schrade gemeistert."}
{"place": "Wanderung durch Sauerland / Westerwald / Vogelsberg / Rhön", "lat": 50.7, "lon": 9.0, "radius_km": 100, "arrival_date": "1945-05-12", "description": "3-wöchige Wanderung mit kleinem KAF-Atlas und Kompass über Höhenwanderwege. Übernachtung in Scheunen, Essen erbettelt. Freundlichkeit nimmt nach Osten ab."}
{"place": "Vacha", "lat": 50.8272, "lon": 10.0408, "arrival_date": "1945-05-20", "description": "Werra mit Mühe überschritten. GI auf Steinbrücke war gerade mit einem deutschen Soldaten in voller Uniform beschäftigt, so dass die drei unbehelligt durchschlüpfen."}
{"place": "Gotha", "lat": 50.9486, "lon": 10.7017, "arrival_date": "1945-05-22", "description": "Schrade trennt sich ab und geht zum Onkel nach Gotha. Wilhelm und Kurt Günther nehmen die Autobahn bis Chemnitz."}
{"place": "Borna an der Autobahn", "lat": 51.125, "lon": 12.4972, "arrival_date": "1945-05-28", "description": "Bei Borna an der amerik./russ. Demarkationslinie von einem GI gestoppt, herausgeredet. Über die Eisenbahnbrücke die russische Seite erreicht. Am 28.05. in Röhrsdorf bei Kamerad Birkas Frau."}
{"place": "Chemnitz / Glösa", "lat": 50.862, "lon": 12.9013, "arrival_date": "1945-05-29", "description": "Gegen 20 Uhr in der Stiftstr. 39 geklingelt. Helga erinnert sich noch: der Vati hatte ganz dreckige Füße. Rückkehr nach 6 Jahren ins Zivil- und Familienleben."}
