{"place": "Rückmarsch über Rheine in die Lüneburger Heide", "lat": 53.0, "lon": 10.5, "radius_km": 60, "arrival_date": "1945-03-24", "description": "Nachdem Engländer bei Wesel den Rhein überschritten, Division überraschend aus Holland zurückgezogen. Marsch über Rheine Richtung Osten, schweres Material in der Lüneburger Heide gesprengt."}
{"place": "Lenzen an der Elbe", "lat": 53.0979, "lon": 11.4667, "arrival_date": "1945-04-01", "description": "Rückmarsch bis Lenzen. Unterwegs die Bevölkerung aus Daber getroffen, die dorthin evakuiert war. Truppe wird als Artillerie-Battr. mit 10,5 cm Haubitzen aufgestellt."}
{"place": "Fehrbellin", "lat": 52.8069, "lon": 12.7583, "arrival_date": "1945-04-10", "description": "Richtung Berlin in Marsch gesetzt und bei Fehrbellin gegen die auf Berlin vorstoßenden Russen eingesetzt. Der April geht mit verschiedenen Einsätzen vorbei."}
{"place": "Brückenkopf bei Dömitz (an der Elbe)", "lat": 53.1456, "lon": 11.2556, "arrival_date": "1945-05-01", "description": "Hitlers Tod verkündet. V-2-Leitung hat mit den Amis Vereinbarung getroffen. Wilhelm als Uffz. befördert. Amis suchen nur Spezialisten. Um 20 Uhr Übergabe an Russen, deshalb mit Autoschläuchen bei 8°C durch die Elbe geschwommen."}
{"place": "Herford", "lat": 52.1158, "lon": 8.6738, "arrival_date": "1945-05-04", "description": "Mit Lkw Richtung Westen über Herford, 3 Tage und Nächte ohne Dach und Essen auf einem Sportplatz. Dann auf offene Güterwagen verladen, weiter Richtung Belgien."}
{"place": "Krefeld", "lat": 51.3388, "lon": 6.5853, "arrival_date": "1945-05-08", "description": "Auf dem Vorortbahnhof Krefeld abgehauen mit Kurt Günther und Gert Schrade. Ein kleiner Junge nimmt sie mit zu seiner Mutter, die sie mit Arbeitsklamotten versieht. Nacht quer Feld, dann Rittergut mit opulentem Frühstück."}
{"place": "Wittlaer (nördlich Düsseldorf)", "lat": 51.2942, "lon": 6.7411, "arrival_date": "1945-05-10", "description": "Durch Vermittlung der Wirtsleute und gegen Geld aus der Batteriekasse ein Boot bekommen, bei Wittlaer unbehelligt über den Rhein gesetzt."}
{"place": "Hagen / Haspe", "lat": 51.3484, "lon": 7.468, "arrival_date": "1945-05-11", "description": "Von Hagen nach Haspe mit dem Zug. Am Schalter wegen Fremdarbeitern große Schwierigkeiten, Dank englisch/französisch-Kenntnissen von Schrade gemeistert."}
{"place": "Wanderung durch Sauerland / Westerwald / Vogelsberg / Rhön", "lat": 50.7, "lon": 9.0, "radius_km": 100, "arrival_date": "1945-05-12", "description": "3-wöchige Wanderung mit kleinem KAF-Atlas und Kompass über Höhenwanderwege. Übernachtung in Scheunen, Essen erbettelt. Freundlichkeit nimmt nach Osten ab."}
{"place": "Vacha", "lat": 50.8272, "lon": 10.0408, "arrival_date": "1945-05-20", "description": "Werra mit Mühe überschritten. GI auf Steinbrücke ist gerade mit einem deutschen Soldaten in voller Uniform beschäftigt, so dass die drei unbehelligt durchschlüpfen."}
{"place": "Gotha", "lat": 50.9486, "lon": 10.7017, "arrival_date": "1945-05-22", "description": "Schrade trennt sich ab und geht zum Onkel nach Gotha. Wilhelm und Kurt Günther nehmen die Autobahn bis Chemnitz."}
{"place": "Borna an der Autobahn", "lat": 51.125, "lon": 12.4972, "arrival_date": "1945-05-28", "description": "Bei Borna an der amerik./russ. Demarkationslinie von einem GI gestoppt, herausgeredet. Über die Eisenbahnbrücke die russische Seite erreicht. Am 28.05. in Röhrsdorf bei Kamerad Birkas Frau."}
{"place": "Chemnitz / Glösa", "lat": 50.862, "lon": 12.9013, "arrival_date": "1945-05-29", "description": "Gegen 20 Uhr in der Stiftstr. 39 geklingelt. Helga erinnert sich noch: der Vati hatte ganz dreckige Füße. Rückkehr nach 6 Jahren ins Zivil- und Familienleben."}
